{
"type": "FeatureCollection",
"name": "stations",
"crs": { "type": "name", "properties": { "name": "urn:ogc:def:crs:OGC:1.3:CRS84" } },
"features": [
{ "type": "Feature", "properties": { "station": "Matarò", "x": "455788", "y": "4597360", "z": "14,7 - 17,0 m", "project": "ACA Posidonia", "sps": "Posidonia oceanica" }, "geometry": { "type": "Point", "coordinates": [ 2.470062288169077, 41.52666401984056 ] } },
{ "type": "Feature", "properties": { "station": "Mataro II-19", "x": "2°27'57,3\"E", "y": "41°31'35,9\" N", "z": "19", "project": "GLORIA", "sps": "Posidonia oceanica" }, "geometry": { "type": "Point", "coordinates": [ 2.465916666666667, 41.52663888888889 ] } },
{ "type": "Feature", "properties": { "station": "Mataro I-12", "x": "2°28'15,2\"E", "y": "41°31'33,0\" N", "z": "12", "project": "GLORIA", "sps": "Posidonia oceanica" }, "geometry": { "type": "Point", "coordinates": [ 2.470888888888889, 41.525833333333331 ] } },
{ "type": "Feature", "properties": { "station": "Mig", "x": "2.47171", "y": "41.52702", "z": "16", "project": "ZECs", "sps": "Posidonia oceanica" }, "geometry": { "type": "Point", "coordinates": [ 2.47171, 41.52702 ] } },
{ "type": "Feature", "properties": { "station": "Mataró", "x": "2.45877", "y": "41.52193", "z": "17", "project": "ZECs", "sps": "Posidonia oceanica" }, "geometry": { "type": "Point", "coordinates": [ 2.45877, 41.52193 ] } }
]
}
